{
    "capitalCities": [
        {
            "capitalCity": "Zurich",
            "lat": 47.3769,
            "long": 8.5417
        },
        {
            "capitalCity": "Paris",
            "lat": 48.8566,
            "long": 2.3522
        },
        {
            "capitalCity": "Madrid",
            "lat": 40.4168,
            "long": -3.7038
        },
        {
            "capitalCity": "London",
            "lat": 51.5074,
            "long": -0.1278
        },
        {
            "capitalCity": "Berlin",
            "lat": 52.5200,
            "long": 13.4050
        },
        {
            "capitalCity": "Amsterdam",
            "lat": 52.3676,
            "long": 4.9041
        },
        {
            "capitalCity": "Rome",
            "lat": 41.9028,
            "long": 12.4964
        },
        {
            "capitalCity": "Oslo",
            "lat": 59.9139,
            "long": 10.7522
        },
        {
            "capitalCity": "Vienna",
            "lat": 48.2082,
            "long": 16.3738
        },
        {
            "capitalCity": "Sarajevo",
            "lat": 43.8486,
            "long": 18.3564
        }
    ]
}